City_ID,City,Lat,Lng,Max Temp,Humidity,Cloudiness,Wind Speed,Country,Date
0,adamstown,-25.066,-130.1015,23.47,76,73,7.72,PN,1733352172
1,albany,42.6001,-73.9662,0.81,63,100,2.68,US,1733351714
2,lihue,21.9789,-159.3672,26.52,85,75,2.06,US,1733352174
3,vadso,70.0744,29.7487,-2.91,74,0,5.66,NO,1733352175
4,crane,31.3974,-102.3501,18.97,46,38,2.04,US,1733352176
5,kashgar,39.4547,75.9797,-2.44,63,20,3.0,CN,1733351939
6,kodiak,57.79,-152.4072,4.73,87,100,4.63,US,1733352178
7,bethel,41.3712,-73.414,3.83,65,100,2.06,US,1733351991
8,afaahiti,-17.75,-149.2833,25.68,78,96,5.3,PF,1733352181
9,utrik,11.2278,169.8474,27.78,81,95,10.92,MH,1733352182
10,richards bay,-28.783,32.0377,22.44,93,48,1.03,ZA,1733352183
11,seward,40.907,-97.0989,8.38,60,8,8.05,US,1733352184
12,ushuaia,-54.8,-68.3,3.07,95,100,3.22,AR,1733352167
13,bredasdorp,-34.5322,20.0403,17.29,75,41,3.64,ZA,1733352186
14,ust-nera,64.5667,143.2,-22.37,100,95,1.24,RU,1733352187
15,mandalgovi,45.7625,106.2708,-9.09,58,77,5.02,MN,1733352188
16,ca mau,9.1769,105.15,23.53,97,100,1.23,VN,1733352014
17,east london,-33.0153,27.9116,20.21,87,47,5.74,ZA,1733352190
18,puerto natales,-51.7236,-72.4875,10.25,46,75,9.77,CL,1733352191
19,tsiombe,-25.3,45.4833,23.45,86,9,1.79,MG,1733352193
20,villa union,23.2,-106.2333,26.98,61,100,3.09,MX,1733352194
21,lompoc,34.6391,-120.4579,16.62,76,0,3.09,US,1733352195
22,new norfolk,-42.7826,147.0587,21.07,47,100,1.19,AU,1733352196
23,jinxiang,27.4327,120.6062,14.53,84,99,3.48,CN,1733352197
24,estacion santa engracia,24.0159,-99.2015,28.37,45,2,2.79,MX,1733352198
25,papatowai,-46.5619,169.4708,16.31,51,1,12.25,NZ,1733352199
26,izyaslav,50.1195,26.8213,-0.55,88,100,2.16,UA,1733352201
27,port-aux-francais,-49.35,70.2167,4.95,96,100,13.35,TF,1733352202
28,grytviken,-54.2811,-36.5092,0.42,78,100,2.07,GS,1733352203
29,hermanus,-34.4187,19.2345,17.67,85,29,5.5,ZA,1733352204
30,thompson,55.7435,-97.8558,-17.91,85,100,5.66,CA,1733352205
31,waitangi,-43.9535,-176.5597,14.63,95,98,11.92,NZ,1733352207
32,vila velha,-20.3297,-40.2925,25.97,87,0,5.14,BR,1733352208
33,hadibu,12.65,54.0333,24.96,78,66,5.17,YE,1733352209
34,sumbe,-11.2061,13.8437,25.14,88,99,2.37,AO,1733352210
35,longyearbyen,78.2186,15.6401,-11.09,73,20,3.6,SJ,1733352211
36,ilulissat,69.2167,-51.1,-10.99,73,100,2.57,GL,1733352212
37,puerto ayora,-0.7393,-90.3518,23.08,91,60,2.68,EC,1733352213
38,bilibino,68.0546,166.4372,-22.11,99,37,1.87,RU,1733352214
39,edinburgh of the seven seas,-37.0676,-12.3116,15.65,88,100,13.19,SH,1733352215
40,jijel,36.8205,5.7667,15.97,67,40,9.26,DZ,1733352216
41,constantia,44.1833,28.65,1.38,90,100,7.05,RO,1733352217
42,itoman,26.1247,127.6694,19.01,66,40,5.14,JP,1733352218
43,kone,-21.0595,164.8658,32.7,43,77,0.96,NC,1733352219
44,nueva gerona,21.8833,-82.8,22.85,57,68,7.48,CU,1733352220
45,malvan,16.0667,73.4667,25.54,83,67,2.39,IN,1733352221
46,aasiaat,68.7098,-52.8699,-12.88,97,100,2.54,GL,1733352223
47,invercargill,-46.4,168.35,15.57,66,0,8.49,NZ,1733352224
48,port mathurin,-19.6833,63.4167,24.28,74,19,7.99,MU,1733352225
49,west island,-12.1568,96.8225,25.99,94,100,5.66,CC,1733352226
50,buala,-8.145,159.5921,30.2,68,99,4.26,SB,1733352227
51,iqaluit,63.7506,-68.5145,-14.15,77,75,2.57,CA,1733352228
52,khorinsk,52.1657,109.7726,-20.98,98,74,0.7,RU,1733352229
53,okha,53.5739,142.9478,-16.67,96,100,6.51,RU,1733352230
54,portland,45.5234,-122.6762,9.2,62,0,6.17,US,1733351908
55,touba,8.2833,-7.6833,23.01,36,60,0.39,CI,1733352232
56,hawaiian paradise park,19.5933,-154.9731,28.82,64,0,6.69,US,1733352233
57,tiksi,71.6872,128.8694,-22.32,93,98,3.24,RU,1733352235
58,alaghsas,17.0187,8.0168,19.18,18,18,4.67,NE,1733352236
59,olonkinbyen,70.9221,-8.7187,-0.66,85,100,4.36,SJ,1733352237
60,happy valley-goose bay,53.3168,-60.3315,-12.83,72,20,3.09,CA,1733352238
61,havsa,41.549,26.8221,6.05,88,56,2.19,TR,1733352240
62,saudarkrokur,65.7461,-19.6394,-1.23,85,100,3.86,IS,1733352241
63,wailua homesteads,22.0669,-159.378,26.18,82,75,2.06,US,1733352242
64,mejit,10.2753,170.8646,27.8,82,90,10.76,MH,1733352243
65,tura,25.5198,90.2201,14.4,79,0,1.29,IN,1733352244
66,palu,-0.8917,119.8707,25.09,98,100,0.47,ID,1733352245
67,port lincoln,-34.7333,135.8667,24.52,43,36,1.41,AU,1733352246
68,cockburn town,21.4612,-71.1419,24.89,74,100,12.16,TC,1733352190
69,hamilton,39.1834,-84.5333,8.69,50,75,7.72,US,1733352035
70,taoudenni,22.6783,-3.9836,20.68,21,100,6.42,ML,1733352249
71,cidreira,-30.1811,-50.2056,20.3,73,4,7.26,BR,1733352250
72,tubarjal,30.4999,38.216,11.55,50,44,2.47,SA,1733352251
73,iskateley,67.6803,53.1512,-6.79,89,65,3.77,RU,1733352252
74,namibe,-15.1961,12.1522,21.87,82,94,1.13,AO,1733352253
75,maintirano,-18.0667,44.0167,26.18,73,40,1.62,MG,1733352255
76,yaren,-0.5472,166.916,27.87,78,7,7.79,NR,1733352256
77,remire-montjoly,4.9167,-52.2667,27.02,78,100,1.54,GF,1733351971
78,dagomys,43.6703,39.6689,9.97,53,100,1.9,RU,1733352258
79,toyota,35.0833,137.15,10.31,62,35,1.93,JP,1733352259
80,korla,41.7597,86.1469,-1.8,67,8,2.37,CN,1733352260
81,khandyga,62.6667,135.6,-27.02,99,100,0.44,RU,1733352261
82,yellowknife,62.456,-114.3525,-16.71,85,100,8.23,CA,1733351993
83,tancacha,-32.2431,-63.9807,23.77,38,0,4.65,AR,1733352263
84,macheng,31.1783,115.0319,6.45,89,93,2.3,CN,1733352264
85,sinan,34.8262,126.1086,8.84,55,99,9.62,KR,1733352265
86,port moresby,-9.4431,147.1797,28.98,73,99,1.42,PG,1733352266
87,pisco,-13.7,-76.2167,23.03,68,0,10.29,PE,1733352267
88,tolanaro,-25.0319,46.9987,23.28,94,35,3.53,MG,1733352268
89,saint-philippe,-21.3585,55.7679,24.15,82,44,6.12,RE,1733352269
90,kapuskasing,49.4169,-82.4331,-5.0,93,100,4.12,CA,1733352270
91,el granada,37.5027,-122.4694,19.32,62,0,2.57,US,1733352271
92,saipan,15.1355,145.701,29.39,74,0,5.36,MP,1733352273
93,freetown,8.484,-13.2299,27.84,74,75,5.14,SL,1733352274
94,qaqortoq,60.7167,-46.0333,-13.44,75,18,3.14,GL,1733352275
95,alofi,-19.0595,-169.9187,27.94,78,75,8.23,NU,1733352276
96,anadyr,64.75,177.4833,-20.72,77,20,4.0,RU,1733352277
97,udachny,66.4167,112.4,-25.0,98,84,4.52,RU,1733352278
98,aspen,39.1911,-106.8175,2.69,44,0,2.57,US,1733352133
99,petropavlovsk-kamchatsky,53.0452,158.6483,-2.67,93,100,2.0,RU,1733352280
100,coahuayana de hidalgo,18.7,-103.6583,28.84,63,68,2.14,MX,1733352282
101,livingstone,-17.8419,25.8543,25.31,22,61,1.6,ZM,1733352283
102,hasaki,35.7333,140.8333,13.41,75,100,6.03,JP,1733352284
103,bonthe,7.5264,-12.505,26.93,80,98,2.17,SL,1733352285
104,narasapur,16.45,81.6667,23.99,90,99,2.65,IN,1733352286
105,ta`u,-14.2336,-169.5144,27.76,77,95,4.3,AS,1733352288
106,ishigaki,24.3448,124.1572,22.07,73,75,7.2,JP,1733352289
107,watertown,42.3709,-71.1828,2.97,53,100,5.66,US,1733352014
108,tazovsky,67.4667,78.7,-4.83,97,100,2.44,RU,1733352291
109,blackmans bay,-43.0167,147.3167,20.41,67,100,0.45,AU,1733352292
110,ribeira grande,38.5167,-28.7,19.87,88,46,4.92,PT,1733352293
111,waingapu,-9.6567,120.2641,25.69,88,100,0.95,ID,1733352294
112,avarua,-21.2078,-159.775,26.03,73,40,5.14,CK,1733352295
113,charters towers,-20.1,146.2667,27.08,64,86,5.67,AU,1733352296
114,bull savanna,17.8868,-77.5902,24.3,79,61,8.07,JM,1733352297
115,banda aceh,5.5577,95.3222,24.81,88,100,1.07,ID,1733352298
116,partapur,23.6,74.1667,18.86,42,15,3.27,IN,1733352299
117,santo domingo,18.5001,-69.9886,27.8,83,75,2.68,DO,1733352194
118,lavinio,41.5011,12.5804,9.96,79,95,0.47,IT,1733352301
119,neya,58.2972,43.8681,-5.27,89,64,3.61,RU,1733352302
120,kerikeri,-35.2268,173.9474,25.51,35,0,1.26,NZ,1733352303
121,nemuro,43.3236,145.575,2.43,57,0,4.93,JP,1733352305
122,moranbah,-22.0016,148.0466,28.65,57,26,6.56,AU,1733352306
123,guerrero negro,27.9769,-114.0611,18.3,63,1,7.57,MX,1733352307
124,monrovia,6.3005,-10.7969,26.43,82,38,2.4,LR,1733352308
125,aykhal,66.0,111.5,-22.66,96,99,6.72,RU,1733352309
126,merizo village,13.2658,144.6691,29.43,82,86,7.1,GU,1733352310
127,antonio enes,-16.2325,39.9086,25.58,81,26,3.65,MZ,1733352311
128,shimoda,34.6667,138.95,11.44,69,66,6.12,JP,1733352312
129,cabo san lucas,22.8909,-109.9124,27.17,52,100,0.89,MX,1733352313
130,stanley,54.868,-1.6985,7.01,95,75,6.17,GB,1733352314
131,uturoa,-16.7333,-151.4333,27.47,74,100,5.42,PF,1733352315
132,dudinka,69.4058,86.1778,-15.64,99,98,1.6,RU,1733352316
133,gorokhovets,56.1947,42.7003,-4.03,80,8,2.83,RU,1733352317
134,guasave,25.5667,-108.45,31.44,9,100,3.14,MX,1733352318
135,al jawf,29.5,38.75,13.4,48,100,3.72,SA,1733352319
136,tejen,37.3834,60.5054,4.3,67,0,2.89,TM,1733352320
137,timmins,48.4669,-81.3331,-3.1,100,100,2.06,CA,1733352205
138,as salamiyah,35.0113,37.0532,10.46,61,98,1.8,SY,1733352323
139,whangarei,-35.7317,174.3239,26.09,37,3,2.52,NZ,1733352324
140,alotau,-10.3069,150.4462,30.39,66,97,2.6,PG,1733352325
141,castelo branco,39.8222,-7.4909,10.68,79,100,1.34,PT,1733352326
142,buka,40.8108,69.1986,5.09,51,100,1.3,UZ,1733352327
143,ribeira brava,32.65,-17.0667,19.28,79,52,4.85,PT,1733352328
144,margaret river,-33.95,115.0667,13.85,71,53,2.56,AU,1733352330
145,aykol,38.1751,77.2132,-2.01,43,76,1.2,CN,1733352331
146,karoi,-16.8099,29.6925,20.62,33,38,2.02,ZW,1733352332
147,bonanza,14.0289,-84.591,21.4,97,95,2.46,NI,1733352334
148,priozersk,61.0393,30.1291,-6.62,100,10,0.98,RU,1733352335
149,egilsstadir,65.2653,-14.3948,-4.05,80,75,4.63,IS,1733352336
150,vilyuysk,63.7553,121.6247,-29.24,98,30,2.79,RU,1733352337
151,uusikaupunki,60.8004,21.4084,-4.33,91,25,3.25,FI,1733352338
152,coquimbo,-29.9533,-71.3436,16.85,71,0,5.66,CL,1733352339
153,arraial do cabo,-22.9661,-42.0278,22.65,92,100,7.09,BR,1733352340
154,tromso,69.6496,18.957,-0.99,59,0,6.69,NO,1733352200
155,bandarbeyla,9.4942,50.8122,24.6,73,0,7.98,SO,1733352343
156,talnakh,69.4865,88.3972,-11.78,96,100,2.49,RU,1733352344
157,laojunmiao,39.8333,97.7333,-7.46,54,98,2.31,CN,1733352346
158,baiti,13.745,-14.7482,27.86,12,100,8.49,SN,1733352347
159,rio gallegos,-51.6226,-69.2181,8.03,57,40,4.12,AR,1733352348
160,hun,29.1268,15.9477,14.7,49,88,2.33,LY,1733352349
161,lauro de freitas,-12.8944,-38.3272,26.01,73,0,6.17,BR,1733352092
162,broome,42.2506,-75.833,-0.17,74,100,6.26,US,1733352351
163,harper,4.375,-7.7169,26.21,85,94,2.91,LR,1733352352
164,dunedin,-45.8742,170.5036,21.0,28,0,7.15,NZ,1733352257
165,schuylkill haven,40.6307,-76.1711,2.03,64,100,1.34,US,1733352354
166,christchurch,-43.5333,172.6333,22.4,54,11,8.23,NZ,1733352125
167,arba minch,6.0333,37.55,18.99,58,41,1.63,ET,1733352356
168,brisas de zicatela,15.8369,-97.0419,30.29,58,20,2.57,MX,1733352357
169,mandera,3.9366,41.867,27.82,33,0,3.99,KE,1733352358
170,college,64.8569,-147.8028,-9.74,76,75,0.0,US,1733352359
171,moyale,3.5167,39.0584,19.57,46,2,3.38,KE,1733352360
172,port saint john's,-31.6229,29.5448,21.44,93,98,2.53,ZA,1733352361
173,neka,36.6508,53.299,2.73,87,0,3.09,IR,1733352362
174,vorgashor,67.5833,63.95,-7.74,93,100,6.82,RU,1733352363
175,inari,68.906,27.0288,-10.7,75,21,3.87,FI,1733352365
176,nowshahr,36.649,51.496,11.52,70,0,1.61,IR,1733352358
177,geraldton,-28.7667,114.6,17.23,77,100,5.66,AU,1733352367
178,turtas,58.9417,69.1325,-1.73,90,100,4.6,RU,1733352368
179,susuman,62.7833,148.1667,-22.36,100,100,0.47,RU,1733352329
180,mount gambier,-37.8333,140.7667,25.26,31,0,3.92,AU,1733352370
181,keflavik,64.0049,-22.5624,0.24,100,100,8.23,IS,1733352371
182,navoloki,57.4657,41.9634,-4.77,87,5,2.87,RU,1733352372
183,saldus,56.6636,22.4881,-1.98,94,100,5.41,LV,1733352373
184,jamestown,42.097,-79.2353,-1.1,73,100,8.23,US,1733352185
185,karratha,-20.7377,116.8463,28.93,33,11,4.65,AU,1733352375
186,taksimo,56.3444,114.8794,-22.72,91,54,1.77,RU,1733352376
187,ninh binh,20.2539,105.975,21.76,82,100,1.48,VN,1733352377
188,acarau,-2.8856,-40.12,25.49,84,100,4.73,BR,1733352378
189,midvagur,62.0511,-7.1939,6.46,93,100,16.46,FO,1733352379
190,zhatay,62.1594,129.8294,-27.97,76,0,2.0,RU,1733352380
191,luganville,-15.5333,167.1667,29.29,76,63,4.93,VU,1733352381
192,vengerovo,55.6848,76.7471,-10.23,96,78,3.93,RU,1733352383
193,zhosaly,45.4878,64.0781,-1.16,81,27,3.53,KZ,1733352384
194,karasu,41.071,30.7854,8.83,89,88,3.64,TR,1733352385
195,enewetak,11.3474,162.3373,28.41,81,54,7.75,MH,1733352386
196,urengoy,65.9667,78.3667,-2.59,97,100,4.73,RU,1733352387
197,rikaze,29.25,88.8833,-2.94,29,0,1.49,CN,1733352388
198,titlagarh,20.3,83.15,21.09,68,4,0.87,IN,1733352389
199,atafu village,-8.5421,-172.5159,28.92,62,44,7.06,TK,1733352390
200,retreat,38.8245,-85.8533,5.16,71,61,7.89,US,1733352391
201,tralee,52.2704,-9.7026,12.07,89,83,5.88,IE,1733352392
202,bol,13.4586,14.7147,22.73,37,22,7.65,TD,1733352393
203,orange,33.7,-117.7675,21.14,64,0,3.09,US,1733352394
204,qamdo,31.1667,97.2333,-5.52,43,1,0.28,CN,1733352395
205,kununurra,-15.7667,128.7333,27.99,89,100,1.54,AU,1733352396
206,smithers,54.7804,-127.1743,3.18,100,75,1.54,CA,1733352398
207,gamba,-2.65,10.0,23.64,92,97,2.02,GA,1733352399
208,turpan,42.9333,89.1667,-0.03,75,0,0.56,CN,1733352400
209,orichi,58.4036,49.0572,-5.99,87,97,4.73,RU,1733352401
210,keokuk,40.3973,-91.3849,7.18,57,100,8.75,US,1733352128
211,margate,51.3813,1.3862,9.37,82,100,0.89,GB,1733352403
212,tara,56.8944,74.371,-5.97,97,97,3.76,RU,1733352404
213,farah,32.5,62.5,6.3,38,0,1.03,AF,1733352405
214,nuuk,64.1835,-51.7216,-4.66,86,75,2.57,GL,1733352406
215,quixada,-4.9714,-39.0153,26.12,67,42,3.76,BR,1733352407
216,villa gesell,-37.2639,-56.973,20.67,55,55,5.63,AR,1733352408
217,sitka,57.0531,-135.33,7.94,93,75,2.57,US,1733352409
218,restrepo,3.822,-76.5224,19.89,97,88,2.31,CO,1733352410
219,st. john's,47.5649,-52.7093,-1.58,79,40,4.63,CA,1733352402
220,ilha de mocambique,-15.0342,40.7358,26.47,81,18,4.57,MZ,1733352412
221,isangel,-19.55,169.2667,28.06,83,75,2.57,VU,1733352413
222,quellon,-43.1167,-73.6167,11.98,89,91,2.63,CL,1733352415
223,port alfred,-33.5906,26.891,18.99,92,75,2.63,ZA,1733352416
224,sinabang,2.4803,96.3801,24.97,86,100,1.73,ID,1733352417
225,codrington,-38.2667,141.9667,24.08,47,1,3.84,AU,1733352418
226,kailua-kona,19.6406,-155.9956,28.64,80,20,4.12,US,1733352419
227,touros,-5.1989,-35.4608,26.01,74,97,5.04,BR,1733352420
228,zaoyang,32.1272,112.7542,5.55,83,33,1.34,CN,1733352421
229,santo antonio,-6.3106,-35.4789,24.61,78,71,2.8,BR,1733352422
230,kruisfontein,-34.0033,24.7314,16.12,85,93,2.78,ZA,1733352423
231,hithadhoo,-0.6,73.0833,27.35,77,52,6.48,MV,1733352424
232,isafjordur,66.0755,-23.124,-4.76,87,100,4.96,IS,1733352426
233,natal,-5.795,-35.2094,27.12,74,40,4.12,BR,1733352276
234,punta arenas,-53.15,-70.9167,9.06,61,75,8.23,CL,1733352198
235,bam,29.106,58.357,7.49,33,0,0.46,IR,1733352430
236,zharkent,44.1628,80.0,-1.64,53,0,1.35,KZ,1733352431
237,howrah,22.5892,88.3103,19.0,88,2,0.0,IN,1733352432
238,whitehorse,60.7161,-135.0538,2.79,87,75,7.72,CA,1733352433
239,great falls,47.5002,-111.3008,7.66,49,0,2.57,US,1733352408
240,nar'yan-mar,67.6713,53.087,-7.12,88,66,3.87,RU,1733352435
241,ranchettes,41.2186,-104.7903,12.91,24,0,5.66,US,1733352436
242,taree,-31.9,152.4667,24.56,85,98,1.02,AU,1733352437
243,noumea,-22.2763,166.4572,29.44,99,49,6.57,NC,1733352438
244,banff,51.1762,-115.5698,1.21,69,69,4.63,CA,1733352439
245,tuburan,6.6439,122.2736,26.9,79,100,1.86,PH,1733352440
246,huesca,42.1362,-0.4087,2.38,87,0,2.06,ES,1733352441
247,sergeyevka,53.88,67.4158,-7.95,94,26,5.4,KZ,1733352443
248,porto novo,6.4965,2.6036,28.9,83,2,2.76,BJ,1733352444
249,nchelenge,-9.3451,28.734,21.27,87,99,3.3,ZM,1733352445
250,salinopolis,-0.6136,-47.3561,26.56,82,82,5.35,BR,1733352446
251,myrina,39.8797,25.0742,9.58,87,20,2.06,GR,1733352447
252,sao vicente,-23.9631,-46.3919,21.24,87,100,4.57,BR,1733352448
253,prado,-17.3411,-39.2208,25.03,82,36,6.03,BR,1733352449
254,mon,26.75,95.1,11.66,87,0,1.58,IN,1733352319
255,queenstown,-31.8976,26.8753,14.18,97,47,1.14,ZA,1733352346
256,prince rupert,54.3161,-130.3201,10.05,82,100,9.77,CA,1733352452
257,chul'man,56.8479,124.9104,-20.01,93,100,4.84,RU,1733352453
258,san rafael,-34.6177,-68.3301,26.91,27,20,5.85,AR,1733352047
259,hotan,37.0997,79.9269,-1.38,41,18,0.25,CN,1733352455
260,toguchin,55.2353,84.3858,-9.78,93,92,4.76,RU,1733352456
261,kargalinskaya,43.7417,46.4792,8.23,91,97,4.04,RU,1733352457
262,cankaya,39.9179,32.8627,4.95,95,75,1.54,TR,1733352458
263,cangzhou,38.3167,116.8667,0.38,53,0,3.09,CN,1733352459
264,damghan,36.1683,54.348,1.2,49,0,0.57,IR,1733352211
265,hereford,52.0568,-2.7148,11.49,94,100,1.79,GB,1733352462
266,tsetserleg,47.475,101.4542,-11.43,72,74,2.26,MN,1733352463
267,oranjemund,-28.55,16.4333,15.36,93,36,0.44,NA,1733352464
268,altai,46.3722,96.2583,-14.85,71,0,0.85,MN,1733352465
269,luderitz,-26.6481,15.1594,16.64,71,44,6.24,NA,1733352466
270,fale old settlement,-9.3852,-171.2468,28.67,66,34,6.86,TK,1733352467
271,nagqu,31.5,92.0,-9.8,19,0,0.62,CN,1733352468
272,guiping,23.3925,110.0814,16.3,69,6,2.12,CN,1733352469
273,bodaybo,57.8506,114.1933,-31.32,100,100,0.58,RU,1733352321
274,cozumel,20.5083,-86.9458,22.19,76,60,5.56,MX,1733352471
275,los osos,35.3111,-120.8324,24.65,67,0,2.93,US,1733352472
276,cooper's town,26.8667,-77.5167,19.61,57,85,4.29,BS,1733352473
277,colac,-38.3333,143.5833,22.27,43,0,2.09,AU,1733352474
278,soderhamn,61.3037,17.0592,-6.27,91,85,1.44,SE,1733352475
279,sandwip,22.4678,91.4561,21.59,62,2,5.33,BD,1733352476
280,chernyshevsk,52.5243,117.0174,-15.75,96,100,1.46,RU,1733352477
281,hobyo,5.3505,48.5268,25.88,71,5,8.7,SO,1733352479
282,howard springs,-12.497,131.047,27.12,100,100,2.06,AU,1733352480
283,rongelap,11.1635,166.8941,28.09,81,81,8.87,MH,1733352481
284,byerazino,53.8391,28.9879,-0.69,88,100,2.9,BY,1733352482
285,fortuna,40.5982,-124.1573,13.88,85,0,5.66,US,1733352483
286,thunder bay,48.4001,-89.3168,-10.01,62,100,12.35,CA,1733352484
287,opuwo,-18.0607,13.84,20.73,30,1,2.72,NA,1733352485
288,arteche,12.2645,125.4048,26.92,85,99,2.84,PH,1733352486
289,los corrales de buelna,43.2636,-4.0726,10.14,83,100,1.02,ES,1733352487
290,san antonio de pale,-1.4014,5.6325,26.34,79,77,1.85,GQ,1733352488
291,narvik,68.4384,17.4272,-3.19,69,100,3.24,NO,1733352489
292,antalaha,-14.9003,50.2788,22.53,86,18,1.82,MG,1733352490
293,bangor,54.6534,-5.669,11.73,96,75,6.17,GB,1733352491
294,barmer,25.75,71.3833,16.79,35,2,2.55,IN,1733352492
295,west plains,36.7281,-91.8524,16.46,41,0,3.6,US,1733352493
296,urangan,-25.3,152.9,25.52,74,99,4.75,AU,1733352494
297,zacatecas,23.0,-103.0,18.1,18,38,5.69,MX,1733352496
298,lebu,-37.6167,-73.65,13.6,68,100,3.53,CL,1733352436
299,laguna,38.421,-121.4238,19.47,56,0,0.0,US,1733352498
300,tazacorte,28.629,-17.9293,20.64,70,20,8.05,ES,1733352499
301,haiku-pauwela,20.9219,-156.3051,28.01,67,20,4.12,US,1733352500
302,port-vila,-17.7338,168.3219,29.78,79,75,4.63,VU,1733352501
303,sokolka,53.4072,23.5023,1.89,91,100,3.2,PL,1733352502
304,murzuq,25.9155,13.9184,11.49,42,71,1.5,LY,1733352503
305,suarez,2.954,-76.6964,23.76,96,85,2.02,CO,1733352504
306,grosseto,42.8333,11.25,9.83,66,40,7.2,IT,1733352505
307,newman,37.3138,-121.0208,17.81,60,0,0.89,US,1733352506
308,flying fish cove,-10.4217,105.6791,25.82,88,100,3.6,CX,1733352507
309,bela vista do paraiso,-22.9967,-51.1906,21.44,83,65,4.44,BR,1733352508
310,gadzhiyevo,69.2551,33.3362,-11.68,89,26,5.59,RU,1733352509
311,hilton,43.2881,-77.7933,2.32,64,100,4.02,US,1733352511
312,kapa'a,22.0752,-159.319,26.93,84,75,2.06,US,1733352512
313,sarykemer,43.0,71.5,-1.29,77,83,2.07,KZ,1733352513
314,amga,60.8953,131.9608,-23.01,89,100,2.08,RU,1733352514
315,fortaleza,-3.7227,-38.5247,26.07,89,40,2.57,BR,1733351917
316,timimoun,29.2639,0.231,17.21,31,0,2.06,DZ,1733352516
317,holmsund,63.706,20.3641,-9.03,86,75,1.03,SE,1733352517
318,san patricio,28.017,-97.5169,20.97,76,100,0.66,US,1733352518
319,minas de marcona,-15.2119,-75.1103,16.66,81,37,7.26,PE,1733352519
320,vilhena,-12.7406,-60.1458,23.12,94,75,3.6,BR,1733352520
321,gualaceo,-2.9,-78.7833,18.81,95,100,0.47,EC,1733352521
322,kalmunai,7.4167,81.8167,25.45,84,99,2.1,LK,1733352522
323,cerro maggiore,45.5953,8.9502,5.08,78,0,1.71,IT,1733352523
324,shushenskoye,53.325,91.9356,-0.78,79,100,4.93,RU,1733352525
325,carnarvon,-24.8667,113.6333,22.33,70,5,10.32,AU,1733352526
326,georgetown,5.4112,100.3354,25.96,88,40,1.54,MY,1733352523
327,westerland,54.9079,8.3033,4.96,93,100,3.6,DE,1733352529
328,rodniki,57.1051,41.7305,-4.79,87,7,3.44,RU,1733352530
329,betio village,1.358,172.9211,31.02,79,8,8.54,KI,1733352531
330,weno,7.4515,151.8468,26.97,89,100,2.57,FM,1733352533
331,chibougamau,49.9168,-74.3659,-5.21,93,100,6.17,CA,1733352370
332,mikuni,36.2171,136.1519,10.74,60,100,6.26,JP,1733352535
333,rockland,41.1668,-74.0496,3.31,56,100,5.08,US,1733352536
334,kavieng,-2.5744,150.7967,29.63,74,100,5.93,PG,1733352537
335,pariaman,-0.619,100.12,23.03,76,100,1.98,ID,1733352538
336,san agustin de valle fertil,-30.6335,-67.4682,27.01,25,0,8.62,AR,1733352540
337,mar del plata,-38.0023,-57.5575,25.01,44,0,8.23,AR,1733351737
338,kirakira,-10.4544,161.9205,30.5,71,100,5.09,SB,1733352542
339,jiangzi,28.95,89.6333,-8.86,56,0,1.57,CN,1733352543
340,vodnyy,63.5046,53.4095,-2.99,88,100,7.2,RU,1733352544
341,diego de almagro,-26.3667,-70.05,22.74,20,48,3.58,CL,1733352545
342,badger,64.8,-147.5333,-9.79,85,75,0.0,US,1733352546
343,huazhou,21.6333,110.5833,16.91,86,18,1.74,CN,1733352547
344,venice,27.0998,-82.4543,18.35,72,1,1.34,US,1733352481
345,sao felix do xingu,-6.6447,-51.995,24.58,85,100,0.55,BR,1733352549
346,arecibo,18.4724,-66.7157,28.49,80,93,0.89,PR,1733352439
347,itacarambi,-15.1022,-44.0919,22.21,95,100,0.89,BR,1733352551
348,puerto baquerizo moreno,-0.9,-89.6,25.55,69,40,6.69,EC,1733352552
349,eureka,40.8021,-124.1637,14.03,80,0,0.45,US,1733352553
350,nizhnesortymskiy,62.4397,71.7603,-2.63,93,100,8.28,RU,1733352554
351,mammoth lakes,37.6485,-118.9721,5.4,42,0,0.0,US,1733352555
352,bubaque,11.2833,-15.8333,28.0,56,100,8.08,GW,1733352557
353,sheregesh,52.9209,87.9869,-5.93,98,100,1.21,RU,1733352558
354,kulim,5.365,100.5618,24.75,92,100,0.93,MY,1733352559
355,kish,26.5578,54.0194,21.15,73,0,2.06,IR,1733352560
356,cananeia,-25.0147,-47.9267,21.34,75,100,3.11,BR,1733352562
357,holualoa,19.6228,-155.9522,26.57,84,20,4.12,US,1733352563
358,tchintabaraden,15.8969,5.7985,19.4,16,11,4.46,NE,1733352564
359,ponta delgada,37.7333,-25.6667,18.44,82,75,3.6,PT,1733352565
360,tartagal,-22.5164,-63.8013,20.24,71,84,0.75,AR,1733352566
361,usinsk,65.9939,57.5281,-6.66,92,100,7.86,RU,1733352567
362,tovuz,40.9922,45.6289,3.58,74,4,1.21,AZ,1733352568
363,alice springs,-23.7,133.8833,32.75,38,2,1.54,AU,1733352569
364,okhotsk,59.3833,143.3,-4.85,95,100,3.95,RU,1733352570
365,polyarnyy,69.1989,33.4478,-11.42,87,17,5.33,RU,1733352571
366,nushki,29.5542,66.0215,9.82,42,0,0.41,PK,1733352573
367,quezon,7.7303,125.0989,22.59,88,51,1.17,PH,1733352574
368,paramonga,-10.6667,-77.8333,20.59,84,86,4.37,PE,1733352575
369,matoury,4.8483,-52.3317,26.98,78,100,1.54,GF,1733352391
370,tofol,5.3248,163.0078,29.22,77,69,9.0,FM,1733352577
371,shimanovsk,52.0,127.7,-15.26,92,100,2.68,RU,1733352578
372,ji'an,27.1172,114.9793,11.9,80,42,2.51,CN,1733352309
373,posse,-14.0931,-46.3694,22.16,87,95,2.04,BR,1733352580
374,port douglas,-16.4833,145.4667,25.18,93,100,4.16,AU,1733352581
375,knyaze-volkonskoye,48.4642,135.4567,-23.81,97,100,1.93,RU,1733352582
376,lamu,-2.2717,40.902,26.37,80,13,5.53,KE,1733352583
377,lobujya,27.95,86.8167,-10.33,12,0,1.71,NP,1733352584
378,saldanha,-33.0117,17.9442,17.03,94,32,2.59,ZA,1733352351
379,grand falls-windsor,48.9332,-55.6649,-3.05,75,65,1.7,CA,1733352539
380,atbasar,51.8,68.3333,-17.19,99,56,1.78,KZ,1733352587
381,kaindy,42.8247,73.6759,1.53,52,66,1.69,KG,1733352588
382,rosetta,31.4044,30.4164,16.29,74,20,1.75,EG,1733352589
383,cox's bazar,21.4532,91.9798,16.84,73,5,5.11,BD,1733352590
384,severo-yeniseyskiy,60.3725,93.0408,-8.05,95,100,2.58,RU,1733352593
385,elmadag,39.9208,33.2308,3.52,100,100,0.4,TR,1733352594
386,seaford,50.7714,0.1027,10.53,89,100,3.58,GB,1733352595
387,tanjung pandan,-2.75,107.65,25.62,87,100,1.82,ID,1733352597
388,colonia,50.9333,6.95,4.98,87,20,3.6,DE,1733352359
389,tamanrasset,22.785,5.5228,8.95,27,0,1.54,DZ,1733352599
390,palikir - national government center,6.9248,158.1611,28.47,79,75,5.66,FM,1733352600
391,ndola,-12.9587,28.6366,17.87,41,95,1.36,ZM,1733352601
392,akrehamn,59.2667,5.1833,5.14,65,75,10.8,NO,1733352602
393,ulverstone,-41.15,146.1667,18.73,81,46,1.94,AU,1733352603
394,morehead city,34.7229,-76.726,9.0,60,0,6.17,US,1733351996
395,paris,48.8534,2.3488,6.16,95,100,5.14,FR,1733352263
396,pacasmayo,-7.4006,-79.5714,20.15,82,14,6.19,PE,1733352607
397,qinggang,46.6833,126.0833,-19.35,93,18,3.57,CN,1733352608
398,vrangel',42.7297,133.0839,-2.29,50,41,9.13,RU,1733352609
399,ma'ili,21.4219,-158.1803,28.95,65,40,4.12,US,1733352610
400,kiama,-34.6833,150.8667,22.92,79,5,2.68,AU,1733352611
401,san luis de la loma,17.2706,-100.8939,27.66,68,77,2.47,MX,1733352612
402,hammerfest,70.6634,23.6821,-0.75,59,0,3.09,NO,1733352613
403,weinan,34.5036,109.5089,4.72,50,80,1.82,CN,1733352614
404,ketchikan,55.3422,-131.6461,9.99,93,100,5.14,US,1733352615
405,inarajan village,13.2736,144.7484,29.66,79,93,7.16,GU,1733352616
406,quthing,-30.4,27.7003,19.41,32,34,1.81,LS,1733352618
407,st. thomas,42.7736,-81.1804,0.31,91,100,7.49,CA,1733352619
408,onega,63.9061,38.1404,-4.89,88,66,4.21,RU,1733352620
409,tokoroa,-38.2333,175.8667,23.79,45,98,4.46,NZ,1733352622
410,kharkhorin,47.1975,102.8238,-7.46,61,68,3.46,MN,1733352624
411,craig,40.5153,-107.5464,-1.03,69,0,0.0,US,1733352626
412,slavonski brod,45.1603,18.0156,4.15,90,100,2.17,HR,1733352627
413,ciudad choluteca,13.3003,-87.1908,30.04,54,75,12.86,HN,1733352628
414,griffith,41.5284,-87.4237,3.92,69,100,7.2,US,1733352629
415,wladyslawowo,54.7909,18.4009,3.85,89,98,2.2,PL,1733352630
416,tadine,-21.55,167.8833,27.37,64,76,3.35,NC,1733352631
417,iranshahr,27.2025,60.6848,14.65,32,2,1.25,IR,1733352632
418,aromashevo,56.8602,68.6375,-6.92,94,90,4.82,RU,1733352634
419,horasan,40.0458,42.1728,-12.1,89,50,0.47,TR,1733352635
420,kayangel,8.0823,134.7173,28.63,77,64,3.74,PW,1733352636
421,port elizabeth,-33.918,25.5701,20.16,96,0,2.06,ZA,1733352637
422,nouadhibou,20.931,-17.0347,21.99,68,100,0.0,MR,1733352639
423,kirriemuir,56.674,-3.0034,7.29,96,100,5.03,GB,1733352640
424,colchani,-20.3,-66.9333,15.47,12,96,5.72,BO,1733352641
425,zelenoborskiy,66.845,32.3622,-5.71,73,10,3.89,RU,1733352642
426,jayapura,-2.5333,140.7,26.66,78,100,2.18,ID,1733352643
427,manicore,-5.8092,-61.3003,27.46,74,99,0.9,BR,1733352644
428,antsiranana,-12.2787,49.2917,24.66,79,4,5.19,MG,1733352645
429,mutuali,-14.8706,37.0044,22.79,84,100,1.23,MZ,1733352646
430,ephrata,40.1798,-76.1788,3.02,58,100,4.63,US,1733352647
431,unai,-16.3575,-46.9061,22.35,95,98,0.59,BR,1733352648
432,hami,42.8,93.45,-3.87,74,19,2.33,CN,1733352649
433,baoding,38.8511,115.4903,2.74,44,1,3.41,CN,1733352650
434,callao,-12.0667,-77.15,19.16,82,40,5.14,PE,1733352191
435,praia da vitoria,38.7333,-27.0667,18.14,88,20,3.06,PT,1733352652
436,twon-brass,4.3151,6.2418,27.91,74,25,4.99,NG,1733352654
437,medina,24.4686,39.6142,18.24,20,0,1.03,SA,1733352655
438,palmas,-10.2128,-48.3603,25.93,83,40,2.06,BR,1733352357
439,kualakapuas,-3.0091,114.3876,23.79,98,100,1.01,ID,1733352657
440,ayorou,14.7308,0.9174,22.03,13,9,4.13,NE,1733352658
441,kasongo,-4.45,26.6667,19.6,96,100,0.36,CD,1733352659
442,ordubad,38.9059,46.0234,3.6,56,56,2.61,AZ,1733352660
443,bamboo flat,11.7,92.7167,26.05,94,40,1.03,IN,1733352661
444,phang nga,8.4509,98.5298,22.87,92,85,0.98,TH,1733352662
445,rzhyshchiv,49.9689,31.0463,-2.26,91,87,2.06,UA,1733352663
446,andovoranto,-18.95,49.1,24.27,80,84,2.27,MG,1733352664
447,walvis bay,-22.9575,14.5053,16.53,82,72,3.6,NA,1733352561
448,zaozersk,69.4005,32.4476,-11.45,82,11,5.24,RU,1733352669
449,sirte,31.2089,16.5887,16.85,50,0,4.93,LY,1733352670
450,marsabit,2.3284,37.9899,19.84,50,7,3.15,KE,1733352671
451,guajara mirim,-10.7828,-65.3394,24.47,93,100,2.07,BR,1733352404
452,miyazu,35.5333,135.1833,5.74,71,94,3.71,JP,1733352673
453,peace river,56.2501,-117.286,-7.83,79,100,2.06,CA,1733352675
454,yokadouma,3.5167,15.05,21.32,45,62,0.33,CM,1733352676
455,pauini,-7.7136,-66.9764,24.44,95,88,0.32,BR,1733352677
456,la sarre,48.8002,-79.1996,-3.44,93,100,5.7,CA,1733352332
457,portet-sur-garonne,43.5233,1.4065,3.99,81,0,4.12,FR,1733352679
458,isagarh,24.8333,77.8833,15.47,48,21,0.57,IN,1733352680
459,kidal,18.4411,1.4078,20.81,17,92,4.14,ML,1733352681
460,viedma,-40.8135,-62.9967,16.54,56,50,5.39,AR,1733352531
461,el alto,-4.2714,-81.2147,20.33,77,51,8.98,PE,1733352683
462,atar,20.5169,-13.0499,23.23,44,100,1.6,MR,1733352685
463,levuka,50.1834,-105.4011,-18.15,78,75,2.57,CA,1733352686
464,antofagasta,-23.65,-70.4,16.6,82,99,4.01,CL,1733352687
465,piacabucu,-10.4056,-36.4344,25.4,83,0,5.35,BR,1733352688
466,mushie,-3.0167,16.9,20.93,96,100,1.26,CD,1733352689
467,zhigalovo,54.8097,105.1578,-11.88,97,100,1.03,RU,1733352690
468,papao,-17.75,-149.55,30.82,75,99,4.91,PF,1733352691
469,buk,52.3553,16.5196,2.84,91,97,3.62,PL,1733352692
470,kingston,17.997,-76.7936,28.53,74,75,3.09,JM,1733352626
471,shar,49.5886,81.0453,-9.0,95,13,2.35,KZ,1733352694
472,miquelon,47.0975,-56.3814,1.68,55,95,4.34,PM,1733352695
473,miracema do tocantins,-9.5618,-48.3967,23.52,92,91,1.08,BR,1733352696
474,argo,37.6333,22.7333,13.02,88,99,0.12,GR,1733352697
475,pundong,-7.9522,110.3486,25.14,92,100,2.01,ID,1733352638
476,chuhar jamali,24.3895,67.9923,20.33,34,2,3.36,PK,1733352699
477,champerico,14.3,-91.9167,27.12,70,22,2.68,GT,1733352700
478,mugia,43.1041,-9.2179,14.61,83,100,5.01,ES,1733352701
479,malango,-2.9627,119.9001,20.54,95,100,0.81,ID,1733352702
480,morant bay,17.8815,-76.4093,25.41,87,100,8.88,JM,1733352704
481,bel ombre,-4.6167,55.4167,27.91,69,20,2.06,SC,1733352705
482,camayenne,9.535,-13.6878,27.74,73,95,5.45,GN,1733352706
483,nadi,-17.8,177.4167,31.0,62,40,4.63,FJ,1733352707
484,kabanga,-2.6386,30.4678,15.82,94,99,0.91,TZ,1733352708
485,takaungu,-3.6837,39.8566,25.74,86,31,3.92,KE,1733352709
486,ancud,-41.8697,-73.8203,12.03,86,100,5.61,CL,1733352710
487,vernon,50.2581,-119.2691,2.18,73,26,1.03,CA,1733352711
488,port augusta,-32.5,137.7667,33.43,27,0,2.0,AU,1733352712
489,kuta,-8.7233,115.1723,25.97,100,75,1.54,ID,1733352713
490,goba,7.0167,39.9833,7.45,63,5,2.0,ET,1733352714
491,el calafate,-50.3408,-72.2768,11.96,56,22,0.48,AR,1733352488
492,lazaro cardenas,17.9583,-102.2,28.31,67,11,3.63,MX,1733352716
493,suntar,62.1444,117.6319,-28.56,99,27,1.82,RU,1733352717
494,hastinapur,29.1667,78.0167,13.43,31,0,3.25,IN,1733352718
495,grand-lahou,5.1367,-5.0242,26.2,85,14,3.23,CI,1733352720
496,mersing,2.4312,103.8405,23.95,94,20,1.54,MY,1733352721
497,azadshahr,34.7909,48.5707,-4.73,58,0,2.06,IR,1733352722
498,labytnangi,66.6572,66.4183,-4.14,94,100,6.69,RU,1733352723
499,labrador city,52.9463,-66.9114,-17.05,85,100,1.54,CA,1733352613
500,klyuchi,52.2667,79.1667,-11.16,91,28,2.97,RU,1733352725
501,huarmey,-10.0681,-78.1522,21.14,81,46,4.7,PE,1733352726
502,kenai,60.5544,-151.2583,4.05,94,100,3.09,US,1733352727
503,xiongzhou,25.1167,114.3,12.51,87,1,1.28,CN,1733352728
504,ambovombe,-25.1667,46.0833,23.49,92,12,2.0,MG,1733352729
505,sisimiut,66.9395,-53.6735,-10.86,90,100,3.48,GL,1733352730
506,dolores,-36.3132,-57.6792,19.64,55,77,4.09,AR,1733352673
507,yeppoon,-23.1333,150.7333,26.99,75,4,5.43,AU,1733352732
508,bondo,3.8146,23.6866,20.76,45,5,1.03,CD,1733352733
509,anamur,36.0751,32.8369,13.53,67,43,5.88,TR,1733352734
510,el hajeb,33.6879,-5.371,4.98,84,0,1.03,MA,1733352735
511,francistown,-21.17,27.5079,27.62,23,69,2.48,BW,1733352736
512,simanggang,1.2472,111.4528,23.99,100,99,0.51,MY,1733352738
513,taunsa,30.7048,70.6505,15.81,36,0,1.33,PK,1733352739
514,bogota,4.6097,-74.0817,15.73,82,40,5.66,CO,1733352448
515,leava,-14.3,-178.1667,28.14,80,100,6.39,WF,1733352741
516,luanco,43.6152,-5.7934,12.54,93,100,1.79,ES,1733352742
517,la passe,45.5549,-0.8967,6.86,78,100,3.63,FR,1733352743
518,harrodsburg,37.7623,-84.8433,8.28,63,100,9.74,US,1733352745
519,al-hamdaniya,36.2715,43.3737,9.91,50,19,1.89,IQ,1733352746
520,plastun,44.7561,136.2939,-8.41,60,48,4.38,RU,1733352747
521,chui,-33.6971,-53.4616,15.66,73,1,3.88,UY,1733352748
522,la'ie,21.6477,-157.9253,28.98,78,12,0.89,US,1733352749
523,carutapera,-1.195,-46.02,25.43,86,44,3.68,BR,1733352750
524,tena,-0.9833,-77.8167,23.45,93,86,0.87,EC,1733352752
525,mata-utu,-13.2816,-176.1745,28.16,80,100,6.89,WF,1733352753
526,sortavala,61.7053,30.6918,-5.35,90,4,0.62,RU,1733352754
527,necochea,-38.5473,-58.7368,17.07,89,80,4.86,AR,1733352681
528,xiaoweizhai,26.1903,107.5125,8.23,94,100,2.21,CN,1733352756
529,xuanzhou,30.9525,118.7553,9.01,86,100,2.26,CN,1733352757
530,rio grande,-32.035,-52.0986,17.53,64,0,5.71,BR,1733352489
531,mount juliet,36.2001,-86.5186,11.99,44,100,7.72,US,1733352760
532,cole harbour,44.6724,-63.4751,-3.93,67,0,1.54,CA,1733352761
533,lake carmel,41.4615,-73.671,2.65,65,100,2.06,US,1733352762
534,bijawar,24.6333,79.5,15.18,50,13,0.99,IN,1733352763
535,itaituba,-4.2761,-55.9836,24.61,93,100,0.78,BR,1733352625
536,nogliki,51.8333,143.1667,-25.06,100,92,2.49,RU,1733352766
537,inhambane,-23.865,35.3833,24.66,84,0,5.01,MZ,1733352767
538,piton saint-leu,-21.2196,55.3151,22.06,73,100,2.06,RE,1733352768
539,cooma,-36.2333,149.1333,25.09,55,15,2.47,AU,1733352769
540,butha-buthe,-28.8333,28.5,11.16,36,1,1.62,LS,1733352771
541,sur,22.5667,59.5289,23.69,57,47,3.88,OM,1733352772
542,oliver,49.1831,-119.5524,0.95,75,2,1.54,CA,1733352774
543,tshabong,-26.05,22.45,26.76,18,26,2.89,BW,1733352695
544,mount pearl,47.5166,-52.7813,-2.04,81,40,4.63,CA,1733352776
545,lubang,13.8584,120.124,27.58,80,94,7.1,PH,1733352777
546,plymouth,41.8334,-70.8328,3.36,68,100,2.06,US,1733352486
547,mangrol,21.1167,70.1167,24.08,41,52,5.2,IN,1733352779
548,barabinsk,55.3571,78.357,-9.92,96,76,4.17,RU,1733352780
549,manturovo,58.3353,44.7619,-5.08,87,51,4.11,RU,1733352781
550,tarakan,3.3,117.6333,24.72,94,75,1.54,ID,1733352782
551,es castell,39.8795,4.2854,13.38,62,40,5.14,ES,1733352783
552,meadow lake,34.8014,-106.5436,14.27,42,3,0.79,US,1733352784
553,amos,48.5669,-78.1162,-3.49,95,100,4.87,CA,1733352786
554,barah,13.7,30.3667,18.22,22,0,4.68,SD,1733352787
555,nuku'alofa,-21.1333,-175.2,29.19,79,40,6.17,TO,1733352788
556,namtsy,62.7161,129.6658,-23.97,82,62,3.6,RU,1733352790
557,mahina,-17.5065,-149.489,30.87,66,0,5.66,PF,1733352791
558,sammichele di bari,40.8867,16.9478,10.6,90,40,2.06,IT,1733352792
559,pierre,44.3683,-100.351,-1.49,29,0,11.83,US,1733352638
560,lesozavodsk,45.4794,133.4244,-13.99,90,68,3.97,RU,1733352794
561,tangalle,6.024,80.7911,25.13,81,100,1.2,LK,1733352795
562,al jaradiyah,16.5795,42.9124,27.23,74,57,2.27,SA,1733352796
563,luang namtha,20.9497,101.4011,18.54,97,10,0.35,LA,1733352797
564,nago,26.5881,127.9761,18.52,67,37,3.7,JP,1733352798
565,yilan,24.757,121.753,17.95,92,99,0.68,TW,1733352799
566,nova sintra,14.8667,-24.7167,25.24,61,0,7.39,CV,1733352800
567,deqen,29.9618,90.7188,-4.72,20,0,2.35,CN,1733352801
568,saint-francois,46.4154,3.9054,-0.2,94,64,1.54,FR,1733352802
569,tanuku,16.75,81.7,23.41,87,97,2.69,IN,1733352803
570,solleftea,63.1667,17.2667,-7.08,75,100,3.13,SE,1733352805
571,turmalina,-17.2856,-42.73,21.5,92,99,1.15,BR,1733352807
572,chania,35.5122,24.0156,14.78,88,40,0.0,GR,1733352808
573,kaiyuan,23.6977,103.3037,17.2,80,88,1.04,CN,1733352809
574,emerald,-23.5333,148.1667,27.97,64,40,6.01,AU,1733352810
575,ubinskoye,55.3068,79.6802,-10.51,96,81,4.57,RU,1733352811
576,berdigestyakh,62.0989,126.6992,-25.91,95,65,3.28,RU,1733352812
577,ujae,8.9322,165.7642,28.48,79,100,8.53,MH,1733352813
578,jiwani,25.05,61.7417,23.82,68,57,3.36,PK,1733352647
579,benguela,-12.5763,13.4055,25.41,84,98,1.12,AO,1733352815
